[{"city":"Eot Municipality","region":"State of Chuuk","country":"fm","latitude":"7.38539982","longitude":"151.73919678"},{"city":"Ettal Municipality","region":"State of Chuuk","country":"fm","latitude":"5.59200001","longitude":"153.55999756"},{"city":"Fananu Municipality","region":"State of Chuuk","country":"fm","latitude":"8.55811024","longitude":"151.90821838"},{"city":"Fanapanges Municipality","region":"State of Chuuk","country":"fm","latitude":"7.35300016","longitude":"151.66760254"},{"city":"Fefen Municipality","region":"State of Chuuk","country":"fm","latitude":"7.35300016","longitude":"151.83099365"},{"city":"Fonoton Municipality","region":"State of Chuuk","country":"fm","latitude":"7.48600006","longitude":"151.87939453"},{"city":"Houk Municipality","region":"State of Chuuk","country":"fm","latitude":"6.68300009","longitude":"149.30000305"},{"city":"Kuttu Municipality","region":"State of Chuuk","country":"fm","latitude":"5.45300007","longitude":"153.45599365"},{"city":"Lekinioch Municipality","region":"State of Chuuk","country":"fm","latitude":"5.50699997","longitude":"153.81900024"},{"city":"Losap Municipality","region":"State of Chuuk","country":"fm","latitude":"6.89400005","longitude":"152.73899841"},{"city":"Makur Municipality","region":"State of Chuuk","country":"fm","latitude":"8.98499966","longitude":"150.12600708"},{"city":"Moch Municipality","region":"State of Chuuk","country":"fm","latitude":"5.49179983","longitude":"153.53849792"},{"city":"Murilo Municipality","region":"State of Chuuk","country":"fm","latitude":"8.69200039","longitude":"152.34199524"},{"city":"Namoluk Municipality","region":"State of Chuuk","country":"fm","latitude":"5.91499996","longitude":"153.13600159"},{"city":"Nema Municipality","region":"State of Chuuk","country":"fm","latitude":"6.99300003","longitude":"152.57400513"},{"city":"Nomwin Municipality","region":"State of Chuuk","country":"fm","latitude":"8.43000031","longitude":"151.74499512"},{"city":"Oneisom Municipality","region":"State of Chuuk","country":"fm","latitude":"7.38700008","longitude":"151.60099792"},{"city":"Oneop Municipality","region":"State of Chuuk","country":"fm","latitude":"5.50659990","longitude":"153.70899963"},{"city":"Onou Municipality","region":"State of Chuuk","country":"fm","latitude":"8.79899979","longitude":"150.28999329"},{"city":"Onoun Municipality","region":"State of Chuuk","country":"fm","latitude":"8.57499981","longitude":"149.68550110"},{"city":"Paata-Tupunion Municipality","region":"State of Chuuk","country":"fm","latitude":"7.37599993","longitude":"151.58299255"},{"city":"Parem Municipality","region":"State of Chuuk","country":"fm","latitude":"7.36199999","longitude":"151.78900146"},{"city":"Piherarh Municipality","region":"State of Chuuk","country":"fm","latitude":"8.56900024","longitude":"150.41799927"},{"city":"Piis-Emwar Municipality","region":"State of Chuuk","country":"fm","latitude":"6.83400011","longitude":"152.69999695"},{"city":"Piis-Panewu Municipality","region":"State of Chuuk","country":"fm","latitude":"7.67799997","longitude":"151.76339722"},{"city":"Pollap Municipality","region":"State of Chuuk","country":"fm","latitude":"7.63970995","longitude":"149.43011475"},{"city":"Polowat Municipality","region":"State of Chuuk","country":"fm","latitude":"7.35500002","longitude":"149.18200684"},{"city":"Pwene Municipality","region":"State of Chuuk","country":"fm","latitude":"7.33699989","longitude":"151.58399963"},{"city":"Ramanum Municipality","region":"State of Chuuk","country":"fm","latitude":"7.41349983","longitude":"151.66459656"},{"city":"Ruo Municipality","region":"State of Chuuk","country":"fm","latitude":"8.60900021","longitude":"152.24400330"},{"city":"Satowan Municipality","region":"State of Chuuk","country":"fm","latitude":"5.33400011","longitude":"153.73649597"},{"city":"Siis Municipality","region":"State of Chuuk","country":"fm","latitude":"7.29500008","longitude":"151.82460022"},{"city":"Ta Municipality","region":"State of Chuuk","country":"fm","latitude":"5.28420019","longitude":"153.64649963"},{"city":"Tamatam Municipality","region":"State of Chuuk","country":"fm","latitude":"7.53898001","longitude":"149.41174316"},{"city":"Tolensom Municipality","region":"State of Chuuk","country":"fm","latitude":"7.33300018","longitude":"151.62300110"},{"city":"Tonoas Municipality","region":"State of Chuuk","country":"fm","latitude":"7.38100004","longitude":"151.88999939"},{"city":"Udot-Fonuweisom Municipality","region":"State of Chuuk","country":"fm","latitude":"7.38899994","longitude":"151.70799255"},{"city":"Uman-Fonuweisom Municipality","region":"State of Chuuk","country":"fm","latitude":"7.29899979","longitude":"151.87699890"},{"city":"Unanu Municipality","region":"State of Chuuk","country":"fm","latitude":"8.75000000","longitude":"150.33949280"},{"city":"Weno-Choniro Municipality","region":"State of Chuuk","country":"fm","latitude":"7.44000006","longitude":"151.88099670"}]